Time,/fdm/jsbsim/aero/function/drag_coeff_basic_Mach,/fdm/jsbsim/aero/function/side_coeff_basic_Mach,/fdm/jsbsim/aero/function/lift_coeff_basic_Mach,/fdm/jsbsim/aero/function/roll_coeff_basic_Mach,/fdm/jsbsim/aero/function/pitch_coeff_basic_Mach,/fdm/jsbsim/aero/function/yaw_coeff_basic_Mach,/fdm/jsbsim/aero/function/aileron_side_coeff_basic_Mach,/fdm/jsbsim/aero/function/aileron_roll_coeff_basic_Mach,/fdm/jsbsim/aero/function/aileron_yaw_coeff_basic_Mach,/fdm/jsbsim/aero/function/elevator_drag_coeff_basic_Mach,/fdm/jsbsim/aero/function/elevator_lift_coeff_basic_Mach,/fdm/jsbsim/aero/function/elevator_pitch_coeff_basic_Mach,/fdm/jsbsim/aero/function/rudder_side_coeff_basic_Mach,/fdm/jsbsim/aero/function/rudder_roll_coeff_basic_Mach,/fdm/jsbsim/aero/function/rudder_yaw_coeff_basic_Mach,/fdm/jsbsim/aero/function/flap_inner_drag_coeff_basic_Mach,/fdm/jsbsim/aero/function/flap_inner_lift_coeff_basic_Mach,/fdm/jsbsim/aero/function/flap_inner_pitch_coeff_basic_Mach,/fdm/jsbsim/aero/function/flap_outer_drag_coeff_basic_Mach,/fdm/jsbsim/aero/function/flap_outer_lift_coeff_basic_Mach,/fdm/jsbsim/aero/function/flap_outer_pitch_coeff_basic_Mach,/fdm/jsbsim/aero/alpha-deg,/fdm/jsbsim/aero/beta-deg,/fdm/jsbsim/aero/Re,/fdm/jsbsim/velocities/mach,/fdm/jsbsim/propulsion/engine/thrust-lbs,/fdm/jsbsim/propulsion/engine[1]/thrust-lbs,/fdm/jsbsim/position/h-sl-meters,/fdm/jsbsim/attitude/phi-deg,/fdm/jsbsim/attitude/theta-deg,/fdm/jsbsim/attitude/psi-deg,/fdm/jsbsim/velocities/vtrue-kts,/fdm/jsbsim/velocities/h-dot-fps,/fdm/jsbsim/velocities/p-rad_sec,/fdm/jsbsim/velocities/q-rad_sec,/fdm/jsbsim/velocities/r-rad_sec
0,0.00264139999999999991,2.98940000000000002e-07,0.283119999999999983,-2.3581999999999999e-08,-0.0464460000000000012,1.3846000000000001e-07,0,0,0,0.000198533664999999977,4.44999999999994011e-05,-0.000111500000000000488,0,0,0,0.000346654999999999967,-0.000497999999999998444,-0.000873500000000002746,0.000247305000000000073,-0.000368500000000000771,0.000352999999999999148,0,0,0,0,705.013037999999938,705.013037999999938,4.50000000708103176,-2.23666816579923211e-15,0.999999999999998668,29.9999999999999929,0,0,0,0,0
0.09999996,0.0676189391054528993,-0.000545158388302853969,1.38776357075233925,0.000329879721035530697,-0.55749910881863407,-0.000300551770985773572,5.18772855581483869e-08,-4.64385378786649669e-08,-4.74844508939503551e-08,0.000167034735027846517,-0.000181104591301529136,0.000613943467118483908,5.90313305826993048e-06,-5.31742176971020493e-07,3.25362620794934347e-06,-0.000207833791365744243,-0.00302983554942399527,-0.000464459668196762644,0.000135629714645372704,-0.00125619266230958234,0.000623483908336080811,91.1167841245455321,0.083724839413893748,280476.868095944577,0.00287317707959817677,0,0,4.45117358491122772,-4.75855267619763769e-10,1.00027340065115578,29.9999999999767084,0,-3.20758595846578443,9.07106889534953047e-11,5.21589085122917961e-05,-1.63834091746698635e-10
0.19999992,0.0676190506574909783,-0.000547190721522650462,1.38776306242183289,0.000331108914713208649,-0.557501192038131976,-0.000301672129480805209,5.20705484183540444e-08,-4.66115393099780956e-08,-4.76613487538966628e-08,0.000167034491890699817,-0.000181104980944392466,0.000613945119204224363,5.92512450147559129e-06,-5.3372312128812851e-07,3.26574721814143576e-06,-0.000207844534598771634,-0.00302980699639497121,-0.00046455265256966483,0.000135629452805368571,-0.00125618592928090434,0.000623461496078582793,91.1304730425501219,0.0840368161668294811,560962.834487812012,0.00574637171822615141,0,0,4.30452240166068112,-1.69109489456330632e-09,1.00057278942893624,29.9999999982959586,0,-6.4151988569062306,1.93578234117166431e-10,5.23657824789470111e-05,-4.60523552689299284e-10
0.29999988,0.0676191624475520059,-0.000549227391211061814,1.38776255300668216,0.000332340731169352744,-0.557503279702676546,-0.000302794878528431157,5.22642992089415843e-08,-4.67849775176814582e-08,-4.78386932275392883e-08,0.000167034248139705195,-0.00018110537157098639,0.000613946775460982625,5.94717146643680223e-06,-5.35709066891650802e-07,3.27789883022530079e-06,-0.000207855304955219369,-0.00302977837127816826,-0.000464645871700039429,0.000135629190304297452,-0.00125617917925336113,0.000623439027236900173,91.135116359210727,0.0843493617432968801,841461.741804482997,0.00861954763377176941,0,0,4.06010321599245128,-3.64293642018569751e-09,1.00087336136778959,29.9999999949041261,0,-9.62281195636142073,2.97164566940438541e-10,5.25726737815307901e-05,-7.58584970176039847e-10
0.39999984,0.0676192742937868629,-0.000551265084313938428,1.38776204333555309,0.000333573166605976017,-0.557505368416260194,-0.000303918191750808943,5.24581569937528336e-08,-4.69585115024721702e-08,-4.80161356354108756e-08,0.000167034004254104949,-0.000181105762413294479,0.000613948432632368851,5.96923060630524337e-06,-5.37696109185966108e-07,3.29005715274527724e-06,-0.000207866081259337954,-0.00302974973035383165,-0.000464739142308441381,0.000135628927658266416,-0.00125617242549827752,0.000623416545987339008,91.1374991814700763,0.0846620506846802456,1121980.04742580699,0.0114926953260526613,0,0,3.71791601655185255,-6.33703136617852947e-09,1.0011751165384859,29.9999999897995373,0,-12.8304253522271825,4.01470782996054404e-10,5.27795720560360833e-05,-1.05801836464413128e-09
0.4999998,0.0676193861621212228,-0.000553303180040970086,1.38776153356371923,0.000334805845557324601,-0.557507457542549045,-0.000305041726926647927,5.26520557243249997e-08,-4.71320821403230658e-08,-4.81936155218620092e-08,0.000167033760316992306,-0.000181106153338154508,0.00061395009015377533,5.99129440540502792e-06,-5.39683571174330825e-07,3.30221804329092006e-06,-0.000207876859839578566,-0.00302972108338008883,-0.000464832432617037609,0.000135628664956760468,-0.00125616567031669631,0.000623394059989390396,91.1389785202073739,0.0849747975104472725,1402524.21574347559,0.0143658053615671067,0,0,3.27796079198420065,-9.77899452696399949e-09,1.00147805497681297,29.9999999829805581,0,-16.0380391418526074,5.06497229513312285e-10,5.2986474128146287e-05,-1.35882376711530823e-09
0.59999976,0.0675987310100191613,-0.000176993141267902938,1.38785565684559331,0.00010720639680506098,-0.557121725319899341,-9.75943730191570677e-05,0,0,0,0.000167100000000000321,-0.000181000000000000605,0.000613500000000002932,0,0,0,-0.00020494999999999975,-0.00303750000000000547,-0.00043949999999999545,0.000135699999999999883,-0.00125799999999999523,0.000629500000000001586,91.5855035597243017,-0.0170412112737526149,1392207.42617065925,0.0142594711945100115,0,0,2.76142509009540094,0.000893154624206333493,1.19236759476595,29.9990604857046499,0,-15.9191078523963263,0.000398634391868089605,0.152216204745139305,5.55742285058154998e-06
0.69999972,0.0676176505101069303,-0.000521681855077297781,1.38776944274119551,0.000315680668471926291,-0.557475044471664405,-0.00028760992996436027,0,0,0,0.000167100000000000321,-0.000181000000000000605,0.000613500000000002932,0,0,0,-0.00020494999999999975,-0.00303750000000000547,-0.00043949999999999545,0.000135699999999999883,-0.00125799999999999523,0.000629500000000001586,100.889346178106578,-0.0866641963216378819,281114.097972267657,0.00287919049536874798,0,0,2.46126942075490973,0.00273936817594366963,3.09266095412592312,29.9991192605588637,0,-3.18466288422856802,0.000242127287668767463,0.458836033383407449,-9.38835490022065384e-06
0.79999968,0.00234492827768769101,-0.000382407697785038002,-0.168172995005156617,9.26918055577685457e-05,0.189239190500534615,-0.000193296420297259724,0,0,0,0.000189855000000000058,0.000140999999999998765,-0.000422000000000005704,0,0,0,0.000353895000000000013,0.000339499999999999524,-0.000128999999999998907,0.000254894999999999991,5.19999999999964935e-05,0.000108000000000000457,-91.2580057390306649,-0.0543150898436976781,496279.586784966406,0.00508296272196513688,0,0,2.53153128053247922,0.00319921321688850782,5.67167931578063378,29.9991750976085072,0,5.63325287496738536,-7.07569053234230786e-05,0.443043111289576297,-1.58761230799714145e-05
0.89999964,0.00234152310452269983,-0.000310120976439247538,-0.168189428470337993,7.51793338318456912e-05,0.189273341719315508,-0.000156760096377957383,0,0,0,0.000189855000000000058,0.000140999999999998765,-0.000422000000000005704,0,0,0,0.000353895000000000013,0.000339499999999999524,-0.000128999999999998907,0.000254894999999999991,5.19999999999964935e-05,0.000108000000000000457,-90.0010458493257772,-0.0537346349241090496,458669.433273669856,0.00469782890741677478,0,0,2.70814192914962781,0.00231119555065759574,8.19939458244602726,29.9991852690171754,0,5.19109970923115061,-0.000172065314709854991,0.440028379549513404,-1.82277943844937052e-05
0.9999996,0.00234794644705571846,-0.000446478908707300748,-0.16815842923160626,0.000108213954699854466,0.189208920626607185,-0.000225680328054808817,0,0,0,0.000189855000000000058,0.000140999999999998765,-0.000422000000000005704,0,0,0,0.000353895000000000013,0.000339499999999999524,-0.000128999999999998907,0.000254894999999999991,5.19999999999964935e-05,0.000108000000000000457,-94.7611470045178379,-0.0771998538069760404,253045.363556279248,0.00259179425402675896,0,0,2.8297697828739885,0.00126671853544426121,10.7191744624741201,29.9991517922873143,0,2.78854213510977589,-0.000132139000707974887,0.439580185957439862,-1.56493119172853952e-05
1.09999956,0.00236458476899517123,-0.000799685539742719009,-0.168078132203813457,0.000193783213123226476,0.189042051294221081,-0.000404203736527353273,0,0,0,0.000189855000000000058,0.000140999999999998765,-0.000422000000000005704,0,0,0,0.000353895000000000013,0.000339499999999999524,-0.000128999999999998907,0.000254894999999999991,5.19999999999964935e-05,0.000108000000000000457,-115.347099052551243,-0.125284329957188495,113448.746536241364,0.0011619943102725537,0,0,2.88521417295634741,0.000584706764747341024,13.2372213688940121,29.9991009747253585,0,1.01405877400275846,-5.92332340439429583e-05,0.439450747097812566,-1.1906165143106344e-05
1.19999952,0.00237387805936409768,-0.000996968162015999344,-0.168033282512975918,0.000241577694326072367,0.188948846873416121,-0.000503917510465804169,0,0,0,0.000189855000000000058,0.000140999999999998765,-0.000422000000000005704,0,0,0,0.000353895000000000013,0.000339499999999999524,-0.000128999999999998907,0.000254894999999999991,5.19999999999964935e-05,0.000108000000000000457,-154.70244987492751,-0.129973955463139806,76611.855246651161,0.000784695013612320873,0,0,2.90095933402776751,0.000307184285602001797,15.7563014085193789,29.9990475601341657,0,0.145210547543480728,-3.85479028141960374e-06,0.440105438663111026,-1.04644047977608699e-05
1.29999948,0.00236122374533240731,-0.000728336046141426618,-0.168094352602207203,0.000176497797958601526,0.189075759728087212,-0.000368141121414061582,0,0,0,0.000189855000000000058,0.000140999999999998765,-0.000422000000000005704,0,0,0,0.000353895000000000013,0.000339499999999999524,-0.000128999999999998907,0.000254894999999999991,5.19999999999964935e-05,0.000108000000000000457,-171.938626703346216,-0.0843354198113814568,82633.555921929903,0.000846372036124639921,0,0,2.89969258608520031,0.000288300215000332385,18.2821204831316493,29.9989873347464915,0,-0.167664046090919283,2.31639638532380761e-05,0.441927715626925843,-1.28952690060105087e-05
1.39999944,0.00235164910263524225,-0.000525080735735725958,-0.16814056010760095,0.000127256349316930758,0.189171785892295691,-0.000265408534833227799,0,0,0,0.000189855000000000058,0.000140999999999998765,-0.000422000000000005704,0,0,0,0.000353895000000000013,0.000339499999999999524,-0.000128999999999998907,0.000254894999999999991,5.19999999999964935e-05,0.000108000000000000457,-175.31593546025843,-0.0532525116846928742,91013.2458643873106,0.000932200189395345651,0,0,2.89249926266670254,0.000408195497494749746,20.8214834872884857,29.9989095925278946,0,-0.289259861910611038,4.30877549669627687e-05,0.444912116076756736,-1.72483028240848945e-05
1.4999994,0.00234494009237014344,-0.000382658505781236251,-0.168172937987153909,9.27525673112453126e-05,0.189239072008526799,-0.000193423187731444696,0,0,0,0.000189855000000000058,0.000140999999999998765,-0.000422000000000005704,0,0,0,0.000353895000000000013,0.000339499999999999524,-0.000128999999999998907,0.000254894999999999991,5.19999999999964935e-05,0.000108000000000000457,-172.214852403941194,-0.0353839658882552643,97310.1236959534144,0.000996694926074456278,0,0,2.88324118064939983,0.000601218527017627607,23.3809688790785088,29.9988033490912365,0,-0.299155134235225773,4.69545773606923073e-05,0.44906441048023843,-2.51670367799991629e-05
1.59999936,0.00233855925056269216,-0.000247202800200996416,-0.168203732116142313,5.99365235078280198e-05,0.189303066852258367,-0.000124958974060402424,0,0,0,0.000189855000000000058,0.000140999999999998765,-0.000422000000000005704,0,0,0,0.000353895000000000013,0.000339499999999999524,-0.000128999999999998907,0.000254894999999999991,5.19999999999964935e-05,0.000108000000000000457,-168.203786814070725,-0.0271086287863628421,103203.43947385675,0.00105705614266590731,0,0,2.87452427653670339,0.0007063209360287702,25.9672852289909741,29.9986341236936447,0,-0.288912377587565827,2.08818647664419862e-05,0.454327251150207057,-3.95657606517951771e-05
1.69999932,0.00233456944086916831,-0.000162505121826328908,-0.168222987054291423,3.94173234365960201e-05,0.189343081517338696,-8.2149703495941435e-05,0,0,0,0.000189855000000000058,0.000140999999999998765,-0.000422000000000005704,0,0,0,0.000353895000000000013,0.000339499999999999524,-0.000128999999999998907,0.000254894999999999991,5.19999999999964935e-05,0.000108000000000000457,-167.120569774307,-0.0194529669571326079,110410.778522366236,0.00113087599033364294,0,0,2.86499432021677514,0.000659520142077108028,28.5862974360356503,29.9983736768860751,0,-0.341785507513105213,1.40353680559742448e-05,0.460572512947619916,-5.1993878625601984e-05
1.79999928,0.00233248515938819624,-0.00011825895068583136,-0.168233045857613922,2.8698068134205267e-05,0.189363985227490511,-5.97860880091498741e-05,0,0,0,0.000189855000000000058,0.000140999999999998765,-0.000422000000000005704,0,0,0,0.000353895000000000013,0.000339499999999999524,-0.000128999999999998907,0.000254894999999999991,5.19999999999964935e-05,0.000108000000000000457,-166.512774699224707,-0.0124360462688949229,118109.612376608449,0.00120972960379359877,0,0,2.85352454316616067,0.000570908248376829049,31.24384360204375,29.9980273536139705,0,-0.411885639690272864,2.27610778102301501e-05,0.467875260584482588,-6.27716029814630858e-05
1.89999924,0.00232819427206315327,-2.71698455617616409e-05,-0.168253753805209155,6.63045532335283847e-06,0.189407019465310855,-1.37463591575355503e-05,0,0,0,0.000189855000000000058,0.000140999999999998765,-0.000422000000000005704,0,0,0,0.000353895000000000013,0.000339499999999999524,-0.000128999999999998907,0.000254894999999999991,5.19999999999964935e-05,0.000108000000000000457,-166.324640078169182,-0.00941747053121499804,122508.428308395916,0.00125478263482162243,0,0,2.83985598476529155,0.000400129537460571102,33.9465483671392434,29.997781025553838,0,-0.48534633382851311,-2.03277101367053842e-05,0.476559092224294989,-1.75523755196818925e-05
1.9999992,0.00232860542986574074,-3.5898109313618027e-05,-0.168251769545641278,8.74499958992142469e-06,0.189402895874706406,-1.81579394001287634e-05,0,0,0,0.000189855000000000058,0.000140999999999998765,-0.000422000000000005704,0,0,0,0.000353895000000000013,0.000339499999999999524,-0.000128999999999998907,0.000254894999999999991,5.19999999999964935e-05,0.000108000000000000457,-166.395554092540408,-0.00606991531584660793,125118.511383614677,0.00128151436505899679,0,0,2.82391316134035586,0.000288297204115707973,36.7027201235683549,29.9977135155149774,0,-0.561277257874667646,-4.56234198520473683e-06,0.486535937826411247,-6.41372982278487097e-06
2.09999916,0.00232862873800912746,-3.63929062547502393e-05,-0.168251657059860338,8.86487108610120854e-06,0.189402662112290926,-1.84080276733125523e-05,0,0,0,0.000189855000000000058,0.000140999999999998765,-0.000422000000000005704,0,0,0,0.000353895000000000013,0.000339499999999999524,-0.000128999999999998907,0.000254894999999999991,5.19999999999964935e-05,0.000108000000000000457,-166.452294660870592,-0.00427469537713558254,128010.87180306841,0.00131113693457092745,0,0,2.80560186420679125,0.000273560478364984563,39.518950475301196,29.997701283992896,0,-0.641014981470798939,1.94233473021910414e-06,0.497616898982098044,-1.36818309014497069e-06
2.19999912,0.00232840447434181242,-3.16321248079106678e-05,-0.168252739362870968,7.71150503312651086e-06,0.18940491130115622,-1.60017565101943643e-05,0,0,0,0.000189855000000000058,0.000140999999999998765,-0.000422000000000005704,0,0,0,0.000353895000000000013,0.000339499999999999524,-0.000128999999999998907,0.000254894999999999991,5.19999999999964935e-05,0.000108000000000000457,-166.530206302799172,-0.00349169487252672193,131224.926380368212,0.0013440540151300035,0,0,2.7847844609588388,0.000292522404720160193,42.4015717185908656,29.9977103433217636,0,-0.725903978171243969,2.51275239476948602e-06,0.509804224109083659,-9.40805847668025333e-07
2.29999908,0.00232811186281306481,-2.54204207281842902e-05,-0.168254151514657779,6.20663262999679567e-06,0.189407845965518906,-1.28621365617105446e-05,0,0,0,0.000189855000000000058,0.000140999999999998765,-0.000422000000000005704,0,0,0,0.000353895000000000013,0.000339499999999999524,-0.000128999999999998907,0.000254894999999999991,5.19999999999964935e-05,0.000108000000000000457,-166.645333557441745,-0.00315651433335501158,134793.463792109455,0.00138060137779305765,0,0,2.76128941523730775,0.000305724692529538112,45.3569288754079665,29.9977159701261513,0,-0.816828726098387525,8.49992497198824581e-07,0.523099940092073168,-2.61127319031133653e-06
2.39999904,0.00232786267157345135,-2.01304642922079164e-05,-0.168255354118860667,4.92506651672342601e-06,0.189410345158402799,-1.01884012163311525e-05,0,0,0,0.000189855000000000058,0.000140999999999998765,-0.000422000000000005704,0,0,0,0.000353895000000000013,0.000339499999999999524,-0.000128999999999998907,0.000254894999999999991,5.19999999999964935e-05,0.000108000000000000457,-166.802209580014676,-0.00291950401812386467,138744.599918906984,0.00142106692050391215,0,0,2.73492344078421601,0.000299238318781589461,48.3913753477068624,29.9977076168585057,0,-0.914364992298443702,-7.32573456742628346e-07,0.537504612082638666,-4.37187436459093951e-06
2.499999,0.00232769088464824993,-1.64836854086725957e-05,-0.168256183167580675,4.04158320333444644e-06,0.189412068046661913,-8.34518724742595949e-06,0,0,0,0.000189855000000000058,0.000140999999999998765,-0.000422000000000005704,0,0,0,0.000353895000000000013,0.000339499999999999524,-0.000128999999999998907,0.000254894999999999991,5.19999999999964935e-05,0.000108000000000000457,-167.000428479346709,-0.00265173177465904183,143106.015457162721,0.00146573407065294053,0,0,2.70547842552959938,0.000275566456858132363,51.5112608753043517,29.9976858046806072,0,-1.01892434791011066,-1.44443463122920885e-06,0.553015970694281989,-5.28890239672583619e-06
2.59999896,0.00232758315191379734,-1.41966809663587453e-05,-0.168256703088904724,3.48752431274660338e-06,0.189413148521576369,-7.18925247055938955e-06,0,0,0,0.000189855000000000058,0.000140999999999998765,-0.000422000000000005704,0,0,0,0.000353895000000000013,0.000339499999999999524,-0.000128999999999998907,0.000254894999999999991,5.19999999999964935e-05,0.000108000000000000457,-167.2371486660453,-0.00235498752491784119,147907.025330796663,0.00151490297936777182,0,0,2.67273555107116723,0.000243042282130979611,54.7229121098475204,29.9976560203546327,0,-1.13079854892534426,-1.42071194686580377e-06,0.569627724659990564,-5.3265927535354877e-06
2.69999892,0.00232751307621833093,-1.27090790072623343e-05,-0.168257041276258401,3.12713188156296903e-06,0.189413851325895305,-6.437364626863455e-06,0,0,0,0.000189855000000000058,0.000140999999999998765,-0.000422000000000005704,0,0,0,0.000353895000000000013,0.000339499999999999524,-0.000128999999999998907,0.000254894999999999991,5.19999999999964935e-05,0.000108000000000000457,-167.507679121667849,-0.00206934122203913549,153178.797225027141,0.00156889275816403883,0,0,2.63646905448138735,0.000208719622455189854,58.0326066679025416,29.9976235746222919,0,-1.25014773990591754,-1.06388733715844874e-06,0.587328451813484476,-4.85863261428388425e-06
2.79999888,0.00232746109314504708,-1.16055562931179477e-05,-0.168257292148088822,2.85978803236662373e-06,0.189414372675389908,-5.87960432752135611e-06,0,0,0,0.000189855000000000058,0.000140999999999998765,-0.000422000000000005704,0,0,0,0.000353895000000000013,0.000339499999999999524,-0.000128999999999998907,0.000254894999999999991,5.19999999999964935e-05,0.000108000000000000457,-167.805555224972693,-0.00182161401067653782,158953.599541353848,0.00162803377465247506,0,0,2.59645071340799349,0.000175955142629560606,61.4465407429888728,29.99759129740956,0,-1.37696642063850772,-6.62647780095183966e-07,0.606100444060506116,-4.23804344527885411e-06
2.89999884,0.00232801502203466501,-2.33646361839272939e-05,-0.1682546188710837,5.70859000148039845e-06,0.18940881720264835,-1.18230686856345337e-05,0,0,0,0.000189855000000000058,0.000140999999999998765,-0.000422000000000005704,0,0,0,0.000353895000000000013,0.000339499999999999524,-0.000128999999999998907,0.000254894999999999991,5.19999999999964935e-05,0.000108000000000000457,-168.110165325521251,-0.000737446480365709775,165289.506719616533,0.00169292068679170195,0,0,2.55245556429326559,0.000151334959716858784,64.9707878057510158,29.9975515424944028,0,-1.51103148561014389,1.55295201569255071e-05,0.625916035831612705,-8.02700918826519273e-06
2.9999988,0.00232913028904414929,-4.70400828160132603e-05,-0.168249236559911752,1.14442988844389634e-05,0.18939763194839121,-2.37894958658931653e-05,3.42763207610696279e-09,-1.86071455560077694e-09,-1.26612531790889143e-09,0.000189854181565402296,0.000140999020676548442,-0.000421996922126304734,1.74319574156295027e-07,-1.56551848700557223e-08,8.89645402937303021e-08,0.000353892762945432816,0.0003394872687951454,-0.000128968521746238745,0.000254892201932999075,5.20055961339982995e-05,0.000107974397686942195,-168.160680635578757,0.00350415895293023586,172690.370059574081,0.00176871382389459241,0,0,2.50427051149606728,0.000156429131986733692,68.6111466054114487,29.9973384294166294,0,-1.65176292292757676,5.96139902941122499e-05,0.646699144317414376,-2.5564174461592804e-05
3.09999876,0.00233046680270420368,-7.54122641524716813e-05,-0.168242786505940128,1.83178575990564543e-05,0.189384227763582824,-3.81298226687548081e-05,8.84852947482725376e-09,-4.80348742919156191e-09,-3.26853843866066187e-09,0.000189852887187860162,0.000140997471848720244,-0.000421992054381701773,4.500109275769239e-07,-4.04143040095167177e-08,2.29664485430309622e-07,0.000353889224980150909,0.000339467134033378723,-0.000128918737994617838,0.000254887776710632796,5.20144465787309113e-05,0.000107933906902290527,-167.850796620597436,0.0080001082117594647,181192.939314027957,0.00185578932045483047,0,0,2.45170504611432571,0.000123841633872585384,72.3730018671908937,29.996802901107074,0,-1.79829671304465699,0.000111641945692386201,0.668395297765330465,-3.91098458086310002e-05
3.19999872,0.00233203292209402131,-0.000108658630912882473,-0.168235228368008388,2.63722560700594651e-05,0.18936852081320843,-5.49337391071233545e-05,1.4686741980570826e-08,-7.97280278945211013e-09,-5.42510264996592867e-09,0.000189851493165690409,0.000140995803788004323,-0.000421986811905165991,7.46925735011879391e-07,-6.70794460255452609e-08,3.81195886752852258e-07,0.000353885414652886968,0.000339445449244071698,-0.000128865121757320189,0.000254883010822872999,5.20239783542504917e-05,0.000107890299029288431,-167.143466969984416,0.0128001942346414564,190633.541811405332,0.00195247054884046221,0,0,2.39459861858189127,6.61553163529912403e-05,76.2614599084486855,29.9959175790405617,0,-1.94913969074661475,0.000172224749891271484,0.690956829133638428,-4.48182504696803324e-05
3.29999868,0.00232814724964485993,-2.61716301161794734e-05,-0.168253980736773667,6.3886236364028369e-06,0.189407491063322747,-1.32418249611846365e-05,4.21468253495394158e-08,-2.28797051897481773e-08,-1.55685212005440647e-08,0.000189844936370273738,0.000140987958049898905,-0.000421962153871120391,2.14346711777655212e-06,-1.92499173739322942e-07,1.09392515264374715e-06,0.000353867492745414734,0.000339343454648701208,-0.000128612937318217435,0.00025486059442828609,5.20688111434243302e-05,0.000107685189018818186,-167.028035406676793,0.0328703581307524528,209714.608320698258,0.00214788711991407673,0,0,2.33290587261021143,-3.33623154180127501e-05,80.2808650176987442,29.9946404282171102,0,-2.21233837113984677,0.000233474642369433478,0.713771336263724021,-4.14524194152920972e-05
3.39999864,0.00233262776596402212,-0.000121286274498551795,-0.168232357634112539,2.94314797717572447e-05,0.189362554995271853,-6.13162069766580285e-05,3.32634117638004923e-08,-1.80572806717759979e-08,-1.22870969984650131e-08,0.000189847057511885025,0.000140990496168066258,-0.000421970130813932088,1.6916820839875491e-06,-1.51925541892621937e-07,8.6335524655512203e-07,0.000353873290532485593,0.000339376450184876801,-0.00012869451968788238,0.000254867846194478513,5.2054307611039451e-05,0.00010775154267947901,-166.272518835822069,0.0285903819329226885,231537.225161861541,0.00237137917252133908,0,0,2.26638401324450989,-0.000133033881183253222,84.4350595771010717,29.9929817060477895,0,-2.49878819029136245,0.000303121237579252495,0.73747993862942951,-3.20819001500263963e-05
3.4999986,0.00236795518526817985,-0.000871234424378340873,-0.168061866476408278,0.000211116933561435421,0.189008248659833622,-0.000440367131082307817,1.77793152871341348e-08,-9.65162829872920405e-09,-6.56746136116583812e-09,0.000189850754734921295,0.00014099492019563101,-0.000421984034900564186,9.04205177459954451e-07,-8.12043012502158855e-08,4.6146394249340676e-07,0.000353883396275451404,0.000339433962543218728,-0.000128836720573892585,0.000254880486273234975,5.20290274535265188e-05,0.000107867199400100641,-114.184654828212629,0.127055446402701167,73616.1889544278092,0.000753965285774399257,0,0,2.21104465853869936,0.000127483702627000485,88.7496160516494967,29.9913115534490693,0,-0.328005356974229501,0.000364379886084931247,0.780226504635925466,-1.71548513108319401e-05
3.59999856,0.00236621066720791272,-0.000834200921294934441,-0.168070285571535777,0.000202145048219483917,0.189025744809091428,-0.000421649058947741234,1.29840884300402677e-07,-7.04850514773559377e-08,-4.79616327721892928e-08,0.000189823997176605871,0.00014096290260448441,-0.000421883408185531883,6.60333640156326184e-06,-5.93028365437343289e-07,3.37003340108673899e-06,0.00035381025894938925,0.000339017733858312277,-0.000127807583715607498,0.000254789007441387407,5.22119851172217025e-05,0.000107030168088695398,-164.288449856849013,0.103022680639059117,316713.76368473348,0.00324371530483963085,0,0,2.15391090368628513,-179.997120120581087,86.780033064312903,209.991968589180033,0,-3.53562505755484446,0.000366605039132427595,0.780226519858307044,-2.83500460907403802e-05
3.69999852,0.00236248245906132406,-0.000755056651575475258,-0.168088278012976294,0.000182971239255307495,0.189063135815629335,-0.00038164668201056697,1.16361050740255446e-07,-6.31674275447051563e-08,-4.29823473142573915e-08,0.000189827215830741677,0.000140966753985501575,-0.000421895512525871609,5.91779058050435437e-06,-5.31461288891202098e-07,3.0201629455399014e-06,0.000353819056604027084,0.000339067801811535703,-0.000127931378105445573,0.000254800011387150784,5.21899772256949278e-05,0.000107130854192430384,-165.616419267648155,0.0940611878637913762,593800.759813225362,0.00608149613868276886,0,0,1.99726097232699407,-179.995867890436188,82.3096821301510602,209.991107834945154,0,-6.74324608133996684,0.00036957202086786129,0.780226525854747499,-3.9161683976678565e-05
3.79999848,0.00236098693266101464,-0.000723308868151155437,-0.168095495467078165,0.000175279893608027012,0.189078134773630835,-0.000365600203801075513,1.11210973755053901e-07,-6.03716714670245366e-08,-4.10799719380911086e-08,0.000189828445543001404,0.000140968225436068789,-0.000421900137084797136,5.65587237954267812e-06,-5.07939100538383881e-07,2.88649217187093695e-06,0.000353822417817537026,0.000339086930668909287,-0.000127978674730819855,0.000254804215531628537,5.21815689367394905e-05,0.00010716932211440148,-163.246430229499794,0.0902977874509391931,873108.14346165827,0.00894185880426827395,0,0,1.74284278306961071,-179.994453877060977,77.8393311627607005,209.990382852838906,0,-9.950867571018156,0.000373251233892398675,0.780226531907973087,-4.95862982714896698e-05
3.89999844,0.00236007565620724533,-0.000703963835199573396,-0.168099893313868348,0.000170593288152772745,0.189087274162447389,-0.000355822524346400171,1.08155209973522464e-07,-5.87128282713361744e-08,-3.99512102147091001e-08,0.0001898291751845574,0.000140969098511434943,-0.000421902881035947851,5.5004649643676526e-06,-4.93982367185185374e-07,2.80717951110865897e-06,0.000353824412171123437,0.00033909828064866926,-0.000128006737867589031,0.000254806710032674691,5.21765799346471964e-05,0.000107192146798973733,-159.857698344979667,0.0879453162109078562,1153039.83012613934,0.0118083808094972993,0,0,1.39065632342398171,-179.992997374074292,73.3689801579821932,209.989665732628453,0,-13.1584894787979838,0.000377612709459093025,0.780226539237960259,-5.96225742177047363e-05
3.9999984,0.00235936358674898551,-0.000688847668116710312,-0.168103329781878058,0.000166931184744089375,0.189094415661184151,-0.000348182266679769353,1.05806506852161848e-07,-5.74378180054547957e-08,-3.90836280413085544e-08,0.00018982973599734353,0.000140969769569469604,-0.000421904990075485428,5.38101663419560004e-06,-4.83255025173746581e-07,2.74621868193016115e-06,0.000353825945059405456,0.000339107004403120017,-0.000128028307590132131,0.00025480862734134519,5.21727453173061984e-05,0.0001072096901733088,-156.046335896329566,0.0860777716461295778,1433248.30136218527,0.0146774272750993182,0,0,0.940701582035422423,-179.991511961977125,68.898629107518758,209.988933950814129,0,-16.3661118533212075,0.000382626301621168368,0.780226548269439268,-6.92714380229145514e-05
4.09999836,0.00235871646333615445,-0.00067511020821288902,-0.168106452818375052,0.000163603092479386303,0.189100905801972585,-0.000341238857495757778,1.03692529393707928e-07,-5.62902302422941819e-08,-3.83027506535939439e-08,0.000189830240763389711,0.000140970373563029171,-0.000421906888340958298,5.27350578059422982e-06,-4.73599756700236705e-07,2.69135018128400442e-06,0.000353827324753265104,0.000339114856319394306,-0.000128047721668832226,0.000254810353037229612,5.21692939255372919e-05,0.000107225480290651533,-152.019485413259417,0.0843648882532480465,1713617.2776239696,0.0175477316273635643,0,0,0.392978538465499905,-179.98999771739895,64.4282780015698222,209.988178056664083,0,-19.5737347700064959,0.000388261869199601442,0.78022655920613504,-7.85361342623021986e-05
4.19999832,0.00235807663717468689,-0.000661527658015655497,-0.16810954063812375,0.00016031252926298128,0.189107322757047502,-0.000334373745281269375,1.0161308398420871e-07,-5.51613884485661277e-08,-3.75346289819217915e-08,0.000189830737284028307,0.000140970967690289011,-0.000421908755598060709,5.16775112833969966e-06,-4.64102208074809787e-07,2.6373779634921462e-06,0.000353828681909677258,0.000339122579973772428,-0.000128066818616470485,0.000254812050543686355,5.21658989126238203e-05,0.000107241012474730652,-147.867976457491636,0.0826630946828856433,1994119.63892400474,0.020418791870937425,0,0,-0.252512819775938979,-179.988451041644453,59.9579268297218135,209.987391727902548,0,-22.7813583147022349,0.00039448946015008951,0.780226572157455611,-8.74222894585803458e-05
4.29999828,0.00235741642707018844,-0.000647512387266957696,-0.168112726831377068,0.000156917133426121702,0.189113944147099533,-0.000327289920446530711,9.94726697418376463e-08,-5.39994492884219251e-08,-3.67439861699439096e-08,0.000189831248362531095,0.000140971579237215419,-0.00042191067760268653,5.05889577544197289e-06,-4.5432619363720486e-07,2.58182329342178906e-06,0.000353830078857584815,0.000339130530083815533,-0.000128086475481961658,0.000254813797820618924,5.21624043587587226e-05,0.000107257000058663462,-143.637893570364781,0.0809030329819253047,2274764.82858158089,0.0232904064178559821,0,0,-0.995772516533732444,-179.986866796475624,55.4875755813934006,209.986569504665397,0,-25.9889825781696828,0.000401279499508179331,0.780226587179997044,-9.59379612976962568e-05
4.39999824,0.00235672197700853309,-0.000632770253559474145,-0.168116078267663976,0.000153345644846675775,0.189120908937093712,-0.000319838712778365325,9.72235190200080165e-08,-5.27784817537145092e-08,-3.59131774339211341e-08,0.000189831785404642208,0.000140972221851707366,-0.000421912697248232656,4.94451039587463813e-06,-4.44053541973011671e-07,2.52344635693152604e-06,0.000353831546772688575,0.000339138884072210896,-0.000128107130947774378,0.000254815633862024479,5.21587322759475727e-05,0.000107273799837524474,-139.355102430801452,0.0790499783712213799,2555520.33013849938,0.0261623408753553464,0,0,-1.8368005733817816,-179.985238914392028,51.0172242461242647,209.985706030311974,0,-29.196607653789389,0.000408602980209001032,0.78022660429453472,-0.000104093673241158237
4.4999982,0.0023559866409465142,-0.00061716017135949664,-0.168119627020983209,0.000149563883576044325,0.189128283781636014,-0.000311948812544309061,9.48425313879712558e-08,-5.14859456106089399e-08,-3.50336697575973572e-08,0.000189832353926178859,0.000140972902133887942,-0.000421914835277943071,4.82342016773105577e-06,-4.33178745400566346e-07,2.46164757998409111e-06,0.000353833100731555379,0.000339147727740558445,-0.000128128997160721647,0.000254817577525397578,5.21548449492013883e-05,0.000107291584357388256,-135.035240327369138,0.0770874302729785688,2836386.67653002497,0.0290345006142528096,0,0,-2.77559701530039327,-179.983560572703112,46.5468728138008601,209.984795704715282,0,-32.4042336364673815,0.000416431655752800731,0.780226623494125748,-0.000111902434422333136
4.59999816,0.0023552079230016146,-0.00060062915682295348,-0.168123385136536685,0.00014555901353515281,0.189136093712472531,-0.000303593439792892864,9.23206979558864311e-08,-5.01169503189058552e-08,-3.41021353673782698e-08,0.000189832956078243235,0.000140973622657725693,-0.000421917099781433068,4.69516692461360108e-06,-4.21660657194432105e-07,2.39619313592438803e-06,0.000353834746613864728,0.000339157094550449046,-0.000128152156855506098,0.000254819636164933978,5.21507276701286009e-05,0.000107310420909146283,-130.688316491839032,0.0750094570269973226,3117367.73398023658,0.0319068251035646705,0,0,-3.81216187294721642,-179.981824205274108,42.076521274854521,209.983832469822374,0,-35.6118606220580887,0.000424738233605716773,0.780226644748470477,-0.000119379744813471312
4.69999812,0.00235438592617239623,-0.0005831793964548985,-0.168127352117250328,0.000141331564435505841,0.189144337696608322,-0.000294773699662866995,8.9657776045460777e-08,-4.86713641389606153e-08,-3.3118484620874106e-08,0.000189833591918781036,0.000140974383492557218,-0.00042191949097661796,4.5597383245976684e-06,-4.09498168958651381e-07,2.32707672601256551e-06,0.000353836484578001374,0.000339166985403259219,-0.000128176612260805911,0.000254821809978738397,5.21463800425197373e-05,0.000107330311305456813,-126.321034780524585,0.0728167887628718979,3398469.32820679061,0.0347792738346820174,0,0,-4.94649518152177325,-179.980021435884026,37.606169620450693,209.982809635561154,0,-38.8194887070360508,0.00043349656820375088,0.780226668006531843,-0.000126543585743390272
4.79999808,0.00235352250657933255,-0.000564850292910330527,-0.16813151900543255,0.000136891082122713104,0.189152997118609417,-0.000285509507681447642,8.68594017355627323e-08,-4.71522466564446479e-08,-3.20847994166056488e-08,0.000189834260102034636,0.000140975183028074357,-0.000421922003802528906,4.41742100255142692e-06,-3.96717022620790624e-07,2.25444463525076346e-06,0.000353838310945561165,0.000339177379364981671,-0.00012820231161671315,0.000254824094365930121,5.21418112681362275e-05,0.000107351213448261354,-121.938053903761855,0.0705146756728232821,3679698.49940802483,0.0376518186858884746,0,0,-6.17859697054624579,-179.97814296071175,33.1358178426791596,209.981719708370406,0,-42.0271179883004322,0.000442681852428670618,0.780226693198284749,-0.000133414395936688756
4.89999804,0.00235262078385635193,-0.000545708071340693661,-0.168135870745638794,0.000132253610568206978,0.189162040690991795,-0.000275834336435850183,8.39354260410602136e-08,-4.55649455651434103e-08,-3.10047185988404433e-08,0.000189834958275822896,0.000140976018449701334,-0.00042192462941335662,4.26871595294530036e-06,-3.833622111834507e-07,2.17855254773508453e-06,0.000353840219287249126,0.000339188239846132679,-0.000128229164454723895,0.000254826481284864436,5.21370374302676518e-05,0.000107373053756510084,-117.54271197834727,0.0681116424847365842,3961063.07420230424,0.0405244395331579368,0,0,-7.50846727862656138,-179.976178386941967,28.6654659347522198,209.980554202164257,0,-45.2347485630484556,0.000452270806437519361,0.78022672023601658,-0.000140015033334752338
4.999998,0.00235168484264440926,-0.000525839442549846871,-0.16814038762527253,0.000127440156679931764,0.189171427448007218,-0.000265792012703083098,8.08989046631453216e-08,-4.39165482457040254e-08,-2.98830647837331072e-08,0.000189835683322764164,0.000140976886027237893,-0.000421927356085614338,4.11428715143991611e-06,-3.6949336456350485e-07,2.09973932552218419e-06,0.000353842201082221882,0.000339199518354107836,-0.000128257050875541466,0.000254828960077826017,5.21320798443445233e-05,0.000107395734712108383,-113.137463453406482,0.0656187259896391373,4242571.4077088926,0.0433971216036695279,0,0,-8.93610615345239623,-179.974116025058294,24.1951138912186998,209.979303416908948,0,-48.4423805286939668,0.000462241862749230138,0.78022674901538891,-0.000146370723046512985
5.09999796,0.00235071954177806146,-0.000505347552311218311,-0.168145046195456199,0.000122475708967632874,0.189181108659352032,-0.000255434670088305286,7.77654546887733388e-08,-4.22155325453307918e-08,-2.87256067319752992e-08,0.000189836431513880485,0.000140977781298659127,-0.000421930169795795419,3.95492883845757125e-06,-3.55181811415250954e-07,2.01841031169756704e-06,0.000353844246137939859,0.000339211156882584033,-0.000128285827456938752,0.000254831517996172445,5.21269640076516745e-05,0.000107419139664978187,-108.724153343341285,0.0630489857676536924,4524232.22184546571,0.046269853814923996,0,0,-10.4615136324942117,-179.971942626448794,19.7247617082002549,209.97795617037329,0,-51.650013982813185,0.000472575346521245001,0.780226779416374971,-0.00015250899186254984
5.19999792,0.00234973038655135816,-0.000484349269764081537,-0.168149819887479901,0.000117388580618837089,0.189191029111240555,-0.000244821378482212848,7.45528256218557429e-08,-4.04715339090042402e-08,-2.75389008929710551e-08,0.000189837198611025052,0.000140978699192678247,-0.000421933054605569781,3.79154370305433575e-06,-3.40508619881043798e-07,1.9350261964464294e-06,0.000353846342870134953,0.000339223089504832624,-0.000128315331193267602,0.00025483414055051275,5.21217188989709902e-05,0.000107443136037192302,-104.30419531033948,0.0604171753843344983,4806054.50050507952,0.0491426276962715694,0,0,-12.0846897600352765,-179.969643052641516,15.2544093836599775,209.976499466228177,0,-54.8576490231035763,0.000483253649985419874,0.780226811304137513,-0.000158459589849213264
5.29999788,0.002348723438998009,-0.000462973282796040532,-0.168154679445791794,0.000112209948078556399,0.189201128006224489,-0.000234017181398447687,7.12805993258743431e-08,-3.86951824911859045e-08,-2.63301805673126242e-08,0.000189837979938528372,0.000140979634114477107,-0.000421935992931223318,3.62512762285871212e-06,-3.25563227125112554e-07,1.85009522903359082e-06,0.000353848478498644059,0.000339235243488217666,-0.00012834538225108783,0.000254836811755652318,5.21163764886918327e-05,0.000107467577564219439,-99.8786907534117177,0.0577395104718910201,5088047.41961965058,0.0520154366677550647,0,0,-13.8056346030682331,-179.967199856381569,10.784056917714663,209.974918077005043,0,-58.0652857473595034,0.000494261400041292372,0.780226844529880559,-0.000164254399771503597
5.39999784,0.00234770525148562947,-0.000441358688348437967,-0.168159593248474404,0.000106973509531008796,0.189211339629190595,-0.000223092383462955926,6.79699689460068369e-08,-3.68979831421151103e-08,-2.51072742433207581e-08,0.000189838770435986419,0.000140980580008871358,-0.00042193896574217667,3.45675842068259508e-06,-3.10442429594207684e-07,1.76416747970470416e-06,0.000353850639191696055,0.000339247540115342899,-0.000128375785999474372,0.000254839514311064471,5.21109713778675611e-05,0.00010749230594624049,-95.4485105098483899,0.0550334962854378482,5370220.29931923468,0.0548882755453791935,0,0,-15.6243482285857205,-179.964592746744358,6.31370431300723478,209.973194013163805,0,-61.2729242534501282,0.000505585617927204324,0.780226878931698287,-0.000169927337040792114
5.4999978,0.00234668281465565945,-0.000419653887258850187,-0.16816452755848782,0.000101715217159718116,0.189221593869482674,-0.000212121991827405752,6.46435664521071248e-08,-3.50922217882839813e-08,-2.38785418935333198e-08,0.000189839564699439034,0.000140981530409583887,-0.000421941952715844642,3.28758709384998333e-06,-2.95249595346559785e-07,1.67783036354671231e-06,0.000353852810178466564,0.00033925989532460597,-0.000128406334593806102,0.000254842229741671729,5.21055405166530254e-05,0.000107517152136296962,-91.0143521816279559,0.052317791833092181,5652582.57047012448,0.0577611401939897781,0,0,-17.5408306672453875,-179.961797899286438,1.84335157516111736,209.971305838721776,0,-64.4805646392978673,0.000517215870868903589,0.780226914335425126,-0.000175514232400197408
5.59999776,0.00234566351403262202,-0.00039801566314073177,-0.168169446733074962,9.64730539931935114e-05,0.189231816656076551,-0.000201185250601638798,6.13253196405435406e-08,-3.32908878048638856e-08,-2.26528221529353462e-08,0.000189840357015514467,0.000140982478480101487,-0.000421944932366042768,3.11883054171903678e-06,-2.80094010929663344e-07,1.59170492895596671e-06,0.000353854975842406031,0.00033927222024133461,-0.000128436808289014335,0.00025484493851457915,5.21001229708382301e-05,0.000107541937408399662,-86.5767811687748718,0.0496120960508647721,5935143.75092687551,0.0606340272788328388,0,0,-19.5550819780916001,-179.958787056059947,-2.62700128665019328,209.969227777947026,40.1075867657614467,-67.6882070028768936,0.000529144413631795971,0.780226950555495513,-0.000181052709229141359
5.69999772,0.00234465509158929882,-0.000376608366469661485,-0.168174313409248988,9.12868362383832471e-05,0.189241930343051284,-0.000190365228461343252,5.8040326090772928e-08,-3.1507605592131408e-08,-2.14393857600609025e-08,0.000189841141391525333,0.000140983417049687145,-0.000421947882156169121,2.9517651554735619e-06,-2.65090305696221426e-07,1.50644258616824805e-06,0.000353857119803502416,0.000339284421645948055,-0.000128466976597124471,0.00025484762014196669,5.20947597160630892e-05,0.000107566474298995905,-82.1362605677050226,0.0469370464728302156,6217913.42831904069,0.0635069340845258734,0,0,-21.6671022303879255,-179.955526336394428,-7.09735425897547945,209.966928533887113,42.0079282761381592,-70.8958514421981647,0.000541366319902903152,0.780226987395813865,-0.00018658205185864853
5.79999768,0.00234366560974197651,-0.000355603150256437464,-0.168179088677553323,8.61980281117658893e-05,0.189251854070688702,-0.000179748432329586926,5.4814735604093141e-08,-2.97565707565053762e-08,-2.02478921313077612e-08,0.000189841911583539476,0.000140984338646969032,-0.0004219507786047694,2.78772083929384876e-06,-2.50357914861141211e-07,1.42272205594458871e-06,0.000353859224995007801,0.00033929640241061286,-0.000128496599366900103,0.000254850253277057897,5.20894934458807565e-05,0.000107590567485080091,-77.6931733072295003,0.044314123914650283,6500901.24740939308,0.0663798583810413234,0,0,-23.8768914763659268,-179.951974643225611,-11.567707323132872,209.964369703425632,43.9082813561682386,-74.1034980553072842,0.00055387960285788716,0.780227024650628542,-0.000192143064712787409
5.89999764,0.00234270341603713987,-0.000335177220398508939,-0.168183732252484758,8.12495602264744443e-05,0.189261504119638158,-0.000169424428477312573,5.16756352955638802e-08,-2.8052487731875339e-08,-1.9088346915300024e-08,0.000189842661123817248,0.000140985235532771475,-0.000421953597388719903,2.62807516646007674e-06,-2.36020554676470995e-07,1.3412463871203549e-06,0.000353861273738433632,0.000339308061926044558,-0.000128525427839121302,0.000254852815807921995,5.20843683841525399e-05,0.000107614014642486649,-73.2478387758593925,0.0417655586608821766,6784116.90075851046,0.0692527983230379618,0,0,-26.1844497955083853,-179.948081494002679,-16.0380604539351985,209.961503617881306,45.8086447852139145,-77.3111469402754494,0.000566685324197576052,0.780227062105411262,-0.000197777924163502019
5.9999976,0.00234177710725283874,-0.000315513073605818448,-0.168188202645741275,7.6485644969146989e-05,0.189270794270951614,-0.000159485457343490507,4.86509330774247788e-08,-2.64105065277428111e-08,-1.79710589530894607e-08,0.000189843383348632601,0.000140986099733405218,-0.000421956313447854555,2.47424745365186093e-06,-2.22205690259746e-07,1.26273993240547172e-06,0.000353863247819595625,0.000339319296534283383,-0.000128553205716634808,0.000254855284952589856,5.20794300948168039e-05,0.000107636607316197655,-68.800525476072508,0.0393142348693384866,7067570.12169312313,0.0721257523732524025,0,0,-28.5897772548079487,-179.943784017208429,-20.5084136179444059,209.958270350210427,47.7090175464216628,-80.5187981951962257,0.000579787691120481059,0.780227099537731505,-0.000203530024134725141
6.09999756,0.00234089549199654806,-0.000296797703409414277,-0.168192457346725804,7.19515841443812385e-05,0.189279636181197974,-0.000150026032223149242,4.57692364688568439e-08,-2.48461569402346291e-08,-1.69065955119653948e-08,0.000189844071427210548,0.000140986923075293402,-0.000421958901093788779,2.32769259755897939e-06,-2.09043982076123609e-07,1.18794520287941772e-06,0.000353865128567708699,0.000339329999978829481,-0.000128579670277325752,0.000254857637357984576,5.20747252840273044e-05,0.000107658131825559601,-64.3514607707023885,0.0369835908052137813,7351270.67901249137,0.0749987192434963812,0,0,-31.0928739167153836,-179.939002713096045,-24.9787667710273631,209.954593487477382,49.6093987876936566,-83.7264519181824767,0.000593194140779882773,0.780227136718122272,-0.000209443816532502169
6.19999752,0.00234006755110057916,-0.00027922175941542829,-0.168196453013679276,6.76935652922230289e-05,0.189287939779665904,-0.00014114251432392191,4.30597244059395353e-08,-2.337527896322249e-08,-1.59057349336224767e-08,0.000189844718392335793,0.000140987697221597077,-0.000421961334125028962,2.18989455550204345e-06,-1.96668700449983073e-07,1.11761954080557688e-06,0.000353866896939051016,0.000339340063880777445,-0.000128604553551372943,0.000254859849204566551,5.20703015908633547e-05,0.000107678370221784661,-59.9008384722803839,0.0347975130920648301,7635228.37299704459,0.077871697848711896,0,0,-33.6937398754745772,-179.933635340189653,-29.4491198548474031,209.950374030228687,51.5097877912966453,-86.934108207361902,0.000606915411859111457,0.780227173410932062,-0.000215564647612334349
6.29999748,0.0023393023952818187,-0.000262978648484834437,-0.16820014567801575,6.37584439363612048e-05,0.1892956136930036,-0.000132932658469781732,4.05520102775841e-08,-2.20139484364010734e-08,-1.49794160413115951e-08,0.00018984531717305622,0.000140988413711348043,-0.000421963585949960561,2.0623593798313968e-06,-1.85215100002514867e-07,1.05253156471491553e-06,0.000353868533606353515,0.000339349378247539918,-0.00012862758357908233,0.000254861896318140746,5.2066207363715018e-05,0.000107697101310988294,-55.448824812472381,0.0327802236004350669,7919453.03230730817,0.0807446872708384306,0,0,-36.3923751992136246,-179.927547881981667,-33.9194727916950782,209.945481373319467,53.410183949961187,-90.1417671608778051,0.000620965602986103989,0.780227209375152331,-0.000221938591422851477
6.39999744,0.00233860921967535967,-0.000248263569550533937,-0.168203490963744678,6.01935097550343037e-05,0.189302565701210734,-0.000125495125262681647,3.82759948825313399e-08,-2.07783972219439602e-08,-1.41386838239553774e-08,0.000189845860629793406,0.000140989064001460898,-0.000421965629718886685,1.94660773974014368e-06,-1.74819748055314837e-07,9.93457352889852984e-07,0.000353870019054768504,0.000339357832019007277,-0.00012864848576128179,0.000254863754289891807,5.20624914202128897e-05,0.00010771410175251053,-50.9955631811344574,0.0309561579514337076,8203954.51168737467,0.083617686730123153,0,0,-39.1887799719572101,-179.920560823784086,-38.3898254766476867,209.93973959829151,55.3105867479042104,-93.3494288768844171,0.000635362217797690032,0.780227244365216843,-0.000228612281486092003
6.4999974,0.00233799725492908356,-0.000235272475428715351,-0.168206444323489634,5.70462350652769381e-05,0.1893087032281216,-0.000118928956344459608,3.62617082727192546e-08,-1.96849273480460536e-08,-1.33946310150247928e-08,0.000189846341592106379,0.000140989639511920851,-0.000421967438466046545,1.84416687786970154e-06,-1.65619802274173176e-07,9.41176338392730868e-07,0.000353871333685090586,0.000339365313654986533,-0.000128666984311780078,0.000254865398605491665,5.20592027890131928e-05,0.000107729147240249125,-46.5411779209967449,0.0293498348348137303,8488742.69017988071,0.0864906955621520535,0,0,-42.0829542845428008,-179.912427626899927,-42.8601777652793317,209.932905964638877,57.2109957456358273,-96.5570934535458889,0.000650126196554818539,0.780227278131762181,-0.000235632741888975867
6.59999736,0.00233747571465060247,-0.000224200957196167843,-0.168208961292111159,5.43640045476824583e-05,0.189313933868470979,-0.000113333010520775149,3.45391397706900832e-08,-1.87498187326588633e-08,-1.27583353030507564e-08,0.000189846752899279297,0.000140990131674350016,-0.000421968985262252422,1.75656196548079012e-06,-1.57752234299599203e-07,8.96466897150268092e-07,0.000353872457924696618,0.000339371711766565541,-0.000128682803818431357,0.000254866804783860669,5.20563904322751851e-05,0.00010774201377232551,-42.0857773904403984,0.0279857155980026973,8773827.46976774931,0.0893637131993117173,0,0,-45.0748982119113251,-179.902799678379949,-47.3305294536555508,209.924635878429029,59.1114105676968151,-99.7647609890369438,0.000665281934301509845,0.780227310422345499,-0.000243047218967913712
6.69999732,0.0023370537390635512,-0.000215243048097887759,-0.168210997758622915,5.21938254762512033e-05,0.189318165952977513,-0.000108805359212745729,3.31380556893273004e-08,-1.79892302313476972e-08,-1.2240791999526957e-08,0.000189847087443845662,0.00014099053198408755,-0.000421970243378570417,1.68530683220005541e-06,-1.51352997209619883e-07,8.60101616850734234e-07,0.000353873372346511362,0.000339376915793153453,-0.000128695670917137751,0.000254867948525967878,5.20541029480607207e-05,0.000107752479012606701,-37.6294564538846359,0.0268880537443183139,9059218.77441906556,0.0922367391557125105,0,0,-48.1646118607968106,-179.891166637936209,-51.8008802442863967,209.914423260086721,61.0118308926857864,-102.972431581538999,0.000680857285652209559,0.780227340982107886,-0.000250903014768877493
6.79999728,0.00233674033479332188,-0.000208589945288444517,-0.168212510256787601,5.05820180423148324e-05,0.189321309152245459,-0.000105442640378792228,3.20878044694788037e-08,-1.74190938548585608e-08,-1.18528420591339422e-08,0.000189847338218116532,0.000140990832055864628,-0.00042197118646129843,1.63189405587633238e-06,-1.4655613551569967e-07,8.32842239271075009e-07,0.000353874057796185054,0.000339380816726255711,-0.000128705316081401648,0.00025486880587390244,5.20523882521915752e-05,0.000107760323746208022,-33.1722985207462528,0.0260807341404874146,9344926.5493070595,0.0951097730148463133,0,0,-51.3520953186303402,-179.876749357236093,-56.2712296850060483,209.901493486844402,62.9122564450951387,-106.180105329239922,0.000696883556383839963,0.780227369554378103,-0.000259247323458652976
6.89999724,0.00233654431077339516,-0.000204428649219503557,-0.168213456274434903,4.95738857270875275e-05,0.189323275119574141,-0.000103339370811873335,3.14171091879939873e-08,-1.70550021306239718e-08,-1.16050954347487352e-08,0.00018984749836372457,0.000140991023683087913,-0.000421971788718285875,1.59778441013224785e-06,-1.4349283747495884e-07,8.15434274801842663e-07,0.000353874495527513669,0.000339383307880158393,-0.000128711475527864286,0.000254869353380254707,5.20512932394871089e-05,0.000107765333429330948,-28.7143772255677376,0.0255871019269598571,9630960.76031256095,0.0979828144194171136,0,0,-54.6373486819267313,-179.858294648228508,-60.7415770518189078,209.884598186835831,64.8126869885842893,-109.387782330335796,0.000713395482099680946,0.780227395881209596,-0.000268127071849456563
6.9999972,0.00233647421032097836,-0.000202940521707471906,-0.16821379458126634,4.92133659733369334e-05,0.189323978172185881,-0.00010258721733471221,3.11538475847648749e-08,-1.69120886888710356e-08,-1.15078498221273705e-08,0.000189847561224148196,0.000140991098900688833,-0.000421972025116460186,1.58439567716802456e-06,-1.42290430397353224e-07,8.08601293026602241e-07,0.000353874667346004907,0.0003393842857089704,-0.00012871389323646537,0.000254869568287685914,5.20508634246246964e-05,0.000107767299832326502,-24.2557578207965037,0.0254297812700560351,9917331.39366372302,0.100855863062905421,0,0,-58.0203720483362702,-179.833647997263569,-65.2119211049689227,209.861587981980193,66.7131223203998189,-112.595462683026739,0.000730431194321705455,0.78022741970384224,-0.000277588765178716286
7.09999716,0.00233653823948910778,-0.000204299764955999873,-0.168213485574630256,4.95426617072606008e-05,0.189323336009798476,-0.000103274228042747799,3.13248199365615069e-08,-1.70049022512749155e-08,-1.15710049153420445e-08,0.000189847520400137656,0.00014099105005144547,-0.000421971871590266746,1.59309084248796749e-06,-1.43071320444946825e-07,8.13038897863642154e-07,0.000353874555760376095,0.000339383650668806554,-0.000128712323082214177,0.000254869428718419125,5.20511425631582392e-05,0.000107766022773535524,-19.7964983378633086,0.0256304842570349578,10204048.455750294,0.103728918682537571,0,0,-61.5011655279994045,-179.798762233090144,-69.6822595229733963,209.828421188192266,68.6135622667248413,-115.803146485518084,0.000748032174455629992,0.780227440763082258,-0.000287678339258712465
7.19999712,0.00233674419186453855,-0.000208671825127949997,-0.168212491642449224,5.06018545814131203e-05,0.189321270468843311,-0.000105484025411657691,3.19555053131886152e-08,-1.73472743128724618e-08,-1.18039723707900164e-08,0.000189847369807915071,0.000140990869855623583,-0.000421971305260540792,1.62516569878500303e-06,-1.45951879369215091e-07,8.29408401169649195e-07,0.000353874144141634399,0.000339381308123121942,-0.000128706531073653313,0.000254868913873213703,5.20521722535690633e-05,0.000107761311939906022,-15.3366505602041272,0.0262098103934113834,10491121.9729837552,0.106601981053391512,0,0,-65.0797292265147007,-179.745028398752254,-74.1525873787232115,209.776494723474883,70.5140066787801771,-119.010833836019884,0.000766243196158186051,0.780227458799591322,-0.000298441020077130806
7.29999708,0.00233709937004092589,-0.000216211725338776977,-0.168210777542192907,5.24285011189805131e-05,0.189317708310027782,-0.000109294963731908852,3.3069806947322709e-08,-1.79521809142594959e-08,-1.22155817499293437e-08,0.000189847103739973873,0.000140990551483728113,-0.000421970304663155029,1.68183589617810786e-06,-1.5104128152674996e-07,8.58330213787847806e-07,0.000353873416889261764,0.000339377169288480884,-0.000128696297691299023,0.000254868004239226645,5.20539915215431582e-05,0.000107752988788924539,-10.8762608427136662,0.0271870373297028942,10778561.9918128662,0.109475049983430342,0,0,-68.7560632483452565,-179.650314217359465,-78.6228920229155221,209.683682614502459,72.4144554295391885,-122.218524832746922,0.000785112256718483413,0.780227473554082396,-0.000309921191889595308
7.39999704,0.0023376105040557372,-0.000227062334194406105,-0.168208310794503907,5.50572132428057154e-05,0.189312582036349375,-0.000114779253965166232,3.4689787637854015e-08,-1.88315990034049937e-08,-1.28139827805133529e-08,0.000189846716928257969,0.000140990088632102244,-0.000421968849986616623,1.76422348558227029e-06,-1.58440295374523472e-07,9.00376977914739373e-07,0.000353872359603904952,0.000339371152217344619,-0.000128681420317610452,0.000254866681806009893,5.20566363879766829e-05,0.000107740888524991181,-6.41537080506040258,0.0285799035939913737,11066378.5787802041,0.112348125309296984,0,0,-72.530167705902457,-179.435203096730959,-83.0931280982114089,209.470575047449273,74.3149084109460887,-125.426219573917066,0.000804690498144326294,0.780227484767411217,-0.000322162274799188799
7.499997,0.000810097458723419784,-0.000241457445400685696,0.0736989368132609513,6.77761916775015039e-05,0.059871952841834053,-0.000120293257236843028,3.48968929555607278e-08,-1.91655708439182512e-08,-1.50465754044463201e-08,0.000195056985417887545,9.5400729571085011e-05,-0.000273229631529479694,1.93011346698966005e-06,-1.73501686471011795e-07,9.96082717333610457e-07,0.000359160358962925489,-6.13748720761619746e-05,-0.000401070468457099508,0.000254498988867750083,-0.000139471181167944721,0.000214942942637184241,-1.95401900010880825,0.030404384252495819,11354581.8221517,0.115221206907868412,0,0,-76.4020427138686244,-178.437667226169509,-87.5629175534792097,208.47515151722601,76.2153655415586684,-128.633918194834848,0.000825032119110834542,0.780227481728814842,-0.000335206612728240489
7.59999696,0.00726505101522198233,-0.000258069368241864612,0.473616489852003941,8.96018475386507095e-05,-0.136161264792519693,-0.00012813568060902173,3.22388339745389325e-08,-1.83436913974394918e-08,-1.83984809979895688e-08,0.000199078519424793318,1.39917046071740192e-05,-1.45560368713164884e-05,2.21143503305715274e-06,-1.99364869757301917e-07,1.16526065465657916e-06,0.000327753414585485643,-0.000748800881959028365,-0.0013242130828493774,0.000237878772939251437,-0.000518830143557107246,0.000450291920518878803,2.50775740812827941,0.0326744604676080658,11643181.8230641596,0.118094294601619576,0,0,-80.3716883948743401,-1.81612623697395614,-87.9647943929879403,31.8558395478848375,78.115826703949466,-131.841620786048708,0.000846194278420457787,0.780227431900084034,-0.000349095372230850693
7.69999692,0.110369999999999996,4.78819999999999996e-07,2.26639999999999997,-3.22630000000000024e-08,-0.909479999999999955,2.24990000000000005e-07,1.01300000000000131e-05,-9.05000000000003024e-06,-9.25000000000014352e-06,0.000260199999999999494,-0.000316499999999997339,0.00109000000000000763,0.00115149999999999975,-0.000103800000000000246,0.000635000000000000148,-0.00089744999999999929,-0.00346449999999999536,-0.00558949999999999725,0.000207800000000000172,-0.00170199999999999518,-0.000146000000000000296,-104.842586192975872,-9.2388384465228377,21106813032.3416176,323.04672278072519,0,0,4272.69024876466756,9.44023978926289686,-15.7870802433259065,218.113050758914881,0,342787.875337059028,9.14913894919459205e+32,-1.38552660409461638e+32,-1.36276768109118738e+33
